{
  "type": "FeatureCollection",
  "generator": "overpass-ide",
  "copyright": "The data included in this document is from www.openstreetmap.org. The data is made available under ODbL.",
  "timestamp": "2019-10-28T05:29:02Z",
  "features": [
    {
      "type": "Feature",
      "properties": {
        "@id": "node/248852574",
        "amenity": "cafe",
        "name": "Cafe Coffee Day"
      },
      "geometry": {
        "type": "Point",
        "coordinates": [
          77.1518947,
          28.533492
        ]
      },
      "id": "node/248852574"
    },
    {
      "type": "Feature",
      "properties": {
        "@id": "node/248852583",
        "amenity": "bank",
        "atm": "yes",
        "name": "ICICI, SBI, Citibank,"
      },
      "geometry": {
        "type": "Point",
        "coordinates": [
          77.152001,
          28.5336472
        ]
      },
      "id": "node/248852583"
    },
    {
      "type": "Feature",
      "properties": {
        "@id": "node/266442982",
        "amenity": "cinema",
        "created_by": "Potlatch 0.9a",
        "name": "PVR Priya"
      },
      "geometry": {
        "type": "Point",
        "coordinates": [
          77.164493,
          28.5573088
        ]
      },
      "id": "node/266442982"
    },
    {
      "type": "Feature",
      "properties": {
        "@id": "node/266443204",
        "amenity": "bank",
        "atm": "yes",
        "name": "Standard Chartered Bank"
      },
      "geometry": {
        "type": "Point",
        "coordinates": [
          77.1645488,
          28.5578459
        ]
      },
      "id": "node/266443204"
    },
    {
      "type": "Feature",
      "properties": {
        "@id": "node/266443228",
        "amenity": "fast_food",
        "brand": "McDonald's",
        "brand:wikidata": "Q38076",
        "brand:wikipedia": "en:McDonald's",
        "cuisine": "burger",
        "delivery": "yes",
        "name": "McDonald's",
        "opening_hours": "Mo-Su 08:00-01:00",
        "phone": "+91-11-66-000-666",
        "smoking": "no",
        "takeaway": "yes",
        "wheelchair": "no"
      },
      "geometry": {
        "type": "Point",
        "coordinates": [
          77.1637622,
          28.5573346
        ]
      },
      "id": "node/266443228"
    },
    {
      "type": "Feature",
      "properties": {
        "@id": "node/271335768",
        "amenity": "school"
      },
      "geometry": {
        "type": "Point",
        "coordinates": [
          77.1378574,
          28.489358
        ]
      },
      "id": "node/271335768"
    },
    {
      "type": "Feature",
      "properties": {
        "@id": "node/277420968",
        "amenity": "fuel",
        "name": "Indian Oil"
      },
      "geometry": {
        "type": "Point",
        "coordinates": [
          77.1070198,
          28.5336932
        ]
      },
      "id": "node/277420968"
    },
    {
      "type": "Feature",
      "properties": {
        "@id": "node/279161182",
        "amenity": "bank",
        "brand": "ICICI",
        "brand:wikidata": "Q1653258",
        "name": "ICICI Bank",
        "name:en": "ICICI Bank",
        "short_name": "ICICI",
        "website": "https://www.icicibank.com",
        "wikidata": "Q1653258",
        "wikipedia": "en:ICICI Bank"
      },
      "geometry": {
        "type": "Point",
        "coordinates": [
          77.1570574,
          28.525047
        ]
      },
      "id": "node/279161182"
    },
    {
      "type": "Feature",
      "properties": {
        "@id": "node/279161187",
        "amenity": "fuel",
        "name": "Indian Oil"
      },
      "geometry": {
        "type": "Point",
        "coordinates": [
          77.1561648,
          28.5262695
        ]
      },
      "id": "node/279161187"
    },
    {
      "type": "Feature",
      "properties": {
        "@id": "node/301037300",
        "amenity": "parking"
      },
      "geometry": {
        "type": "Point",
        "coordinates": [
          77.1850155,
          28.5499496
        ]
      },
      "id": "node/301037300"
    },
    {
      "type": "Feature",
      "properties": {
        "@id": "node/308894803",
        "amenity": "restaurant",
        "created_by": "Potlatch 0.10f"
      },
      "geometry": {
        "type": "Point",
        "coordinates": [
          77.2299189,
          28.6069461
        ]
      },
      "id": "node/308894803"
    },
    {
      "type": "Feature",
      "properties": {
        "@id": "node/309861440",
        "addr:postcode": "110021",
        "addr:street": "Chandragupta Marg",
        "amenity": "school",
        "country": "US",
        "name": "US Embassy School New Delhi",
        "name:en": "US Embassy School",
        "name:hi": "US Embassy School",
        "phone": "+91 11 2419 8000",
        "website": "https://in.usembassy.gov/"
      },
      "geometry": {
        "type": "Point",
        "coordinates": [
          77.185421,
          28.5983754
        ]
      },
      "id": "node/309861440"
    },
    {
      "type": "Feature",
      "properties": {
        "@id": "node/312102918",
        "amenity": "fuel",
        "brand": "Hindustan Petroleum"
      },
      "geometry": {
        "type": "Point",
        "coordinates": [
          77.2089741,
          28.5737882
        ]
      },
      "id": "node/312102918"
    },
    {
      "type": "Feature",
      "properties": {
        "@id": "node/372717372",
        "amenity": "fire_station"
      },
      "geometry": {
        "type": "Point",
        "coordinates": [
          77.1669817,
          28.5728012
        ]
      },
      "id": "node/372717372"
    },
    {
      "type": "Feature",
      "properties": {
        "@id": "node/410057535",
        "amenity": "fuel"
      },
      "geometry": {
        "type": "Point",
        "coordinates": [
          77.1431664,
          28.5351953
        ]
      },
      "id": "node/410057535"
    },
    {
      "type": "Feature",
      "properties": {
        "@id": "node/449455817",
        "amenity": "parking"
      },
      "geometry": {
        "type": "Point",
        "coordinates": [
          77.1529192,
          28.5389671
        ]
      },
      "id": "node/449455817"
    },
    {
      "type": "Feature",
      "properties": {
        "@id": "node/545641337",
        "amenity": "parking",
        "capacity": "40",
        "capacity:disabled": "yes",
        "capacity:parent": "yes",
        "capacity:women": "unknown",
        "fee": "no",
        "name": "TBS Parking",
        "park_ride": "no",
        "parking": "surface"
      },
      "geometry": {
        "type": "Point",
        "coordinates": [
          77.1809515,
          28.59806
        ]
      },
      "id": "node/545641337"
    },
    {
      "type": "Feature",
      "properties": {
        "@id": "node/545641483",
        "amenity": "school",
        "name": "Secondary School"
      },
      "geometry": {
        "type": "Point",
        "coordinates": [
          77.1808404,
          28.5978094
        ]
      },
      "id": "node/545641483"
    },
    {
      "type": "Feature",
      "properties": {
        "@id": "node/587754665",
        "amenity": "school",
        "name": "St Mary's School"
      },
      "geometry": {
        "type": "Point",
        "coordinates": [
          77.1909497,
          28.5640001
        ]
      },
      "id": "node/587754665"
    },
    {
      "type": "Feature",
      "properties": {
        "@id": "node/610885933",
        "amenity": "pharmacy"
      },
      "geometry": {
        "type": "Point",
        "coordinates": [
          77.1212195,
          28.5927488
        ]
      },
      "id": "node/610885933"
    },
    {
      "type": "Feature",
      "properties": {
        "@id": "node/610885935",
        "addr:housenumber": "110010",
        "addr:street": "h/no 1/55 sadar bazar delhi cantt 10",
        "amenity": "school",
        "name": "New delhi"
      },
      "geometry": {
        "type": "Point",
        "coordinates": [
          77.122304,
          28.5925928
        ]
      },
      "id": "node/610885935"
    },
    {
      "type": "Feature",
      "properties": {
        "@id": "node/613342451",
        "amenity": "post_box",
        "postal_code": "110057"
      },
      "geometry": {
        "type": "Point",
        "coordinates": [
          77.1637209,
          28.5571803
        ]
      },
      "id": "node/613342451"
    },
    {
      "type": "Feature",
      "properties": {
        "@id": "node/613342453",
        "amenity": "post_box",
        "postal_code": "110022"
      },
      "geometry": {
        "type": "Point",
        "coordinates": [
          77.1656027,
          28.5672852
        ]
      },
      "id": "node/613342453"
    },
    {
      "type": "Feature",
      "properties": {
        "@id": "node/632050626",
        "amenity": "hospital",
        "name": "Base Hospital Delhi Cantt"
      },
      "geometry": {
        "type": "Point",
        "coordinates": [
          77.1366732,
          28.6082403
        ]
      },
      "id": "node/632050626"
    },
    {
      "type": "Feature",
      "properties": {
        "@id": "node/723739750",
        "amenity": "post_box"
      },
      "geometry": {
        "type": "Point",
        "coordinates": [
          77.0623935,
          28.5588615
        ]
      },
      "id": "node/723739750"
    },
    {
      "type": "Feature",
      "properties": {
        "@id": "node/725878004",
        "amenity": "fuel"
      },
      "geometry": {
        "type": "Point",
        "coordinates": [
          77.1216961,
          28.6272836
        ]
      },
      "id": "node/725878004"
    },
    {
      "type": "Feature",
      "properties": {
        "@id": "node/786590787",
        "amenity": "toilets"
      },
      "geometry": {
        "type": "Point",
        "coordinates": [
          77.2181565,
          28.6315203
        ]
      },
      "id": "node/786590787"
    },
    {
      "type": "Feature",
      "properties": {
        "@id": "node/883881204",
        "amenity": "school"
      },
      "geometry": {
        "type": "Point",
        "coordinates": [
          77.177701,
          28.5962679
        ]
      },
      "id": "node/883881204"
    },
    {
      "type": "Feature",
      "properties": {
        "@id": "node/928558280",
        "amenity": "cinema",
        "name": "PVR Plaza Cinema"
      },
      "geometry": {
        "type": "Point",
        "coordinates": [
          77.2196937,
          28.6350924
        ]
      },
      "id": "node/928558280"
    },
    {
      "type": "Feature",
      "properties": {
        "@id": "node/928558830",
        "amenity": "parking"
      },
      "geometry": {
        "type": "Point",
        "coordinates": [
          77.2212494,
          28.6328606
        ]
      },
      "id": "node/928558830"
    },
    {
      "type": "Feature",
      "properties": {
        "@id": "node/928558934",
        "amenity": "parking"
      },
      "geometry": {
        "type": "Point",
        "coordinates": [
          77.2212149,
          28.6324431
        ]
      },
      "id": "node/928558934"
    },
    {
      "type": "Feature",
      "properties": {
        "@id": "node/928559077",
        "amenity": "parking"
      },
      "geometry": {
        "type": "Point",
        "coordinates": [
          77.2207988,
          28.6318154
        ]
      },
      "id": "node/928559077"
    },
    {
      "type": "Feature",
      "properties": {
        "@id": "node/928559154",
        "amenity": "parking"
      },
      "geometry": {
        "type": "Point",
        "coordinates": [
          77.2204126,
          28.6315799
        ]
      },
      "id": "node/928559154"
    },
    {
      "type": "Feature",
      "properties": {
        "@id": "node/928559229",
        "amenity": "parking"
      },
      "geometry": {
        "type": "Point",
        "coordinates": [
          77.2186316,
          28.633774
        ]
      },
      "id": "node/928559229"
    },
    {
      "type": "Feature",
      "properties": {
        "@id": "node/928559360",
        "amenity": "parking"
      },
      "geometry": {
        "type": "Point",
        "coordinates": [
          77.2195757,
          28.6340848
        ]
      },
      "id": "node/928559360"
    },
    {
      "type": "Feature",
      "properties": {
        "@id": "node/928563257",
        "amenity": "atm",
        "name": "Citibank"
      },
      "geometry": {
        "type": "Point",
        "coordinates": [
          77.2201014,
          28.6347064
        ]
      },
      "id": "node/928563257"
    },
    {
      "type": "Feature",
      "properties": {
        "@id": "node/928563678",
        "amenity": "atm",
        "name": "HDFC"
      },
      "geometry": {
        "type": "Point",
        "coordinates": [
          77.2175372,
          28.6344827
        ]
      },
      "id": "node/928563678"
    },
    {
      "type": "Feature",
      "properties": {
        "@id": "node/928564493",
        "amenity": "cafe",
        "name": "Costa"
      },
      "geometry": {
        "type": "Point",
        "coordinates": [
          77.2222257,
          28.6348946
        ]
      },
      "id": "node/928564493"
    },
    {
      "type": "Feature",
      "properties": {
        "@id": "node/928567979",
        "amenity": "restaurant",
        "disused": "yes",
        "name": "Piccadelhi"
      },
      "geometry": {
        "type": "Point",
        "coordinates": [
          77.2196937,
          28.635243
        ]
      },
      "id": "node/928567979"
    },
    {
      "type": "Feature",
      "properties": {
        "@id": "node/938372530",
        "amenity": "club",
        "name": "Railway Club"
      },
      "geometry": {
        "type": "Point",
        "coordinates": [
          77.2190934,
          28.6415528
        ]
      },
      "id": "node/938372530"
    },
    {
      "type": "Feature",
      "properties": {
        "@id": "node/938372588",
        "amenity": "bus_station",
        "name": "New Delhi Station (Paharganj)"
      },
      "geometry": {
        "type": "Point",
        "coordinates": [
          77.2187312,
          28.6412362
        ]
      },
      "id": "node/938372588"
    },
    {
      "type": "Feature",
      "properties": {
        "@id": "node/943245926",
        "alt_name": "Central Secretariat",
        "amenity": "bus_station",
        "name": "Kendriya Bus Terminal"
      },
      "geometry": {
        "type": "Point",
        "coordinates": [
          77.203509,
          28.6171973
        ]
      },
      "id": "node/943245926"
    },
    {
      "type": "Feature",
      "properties": {
        "@id": "node/943245928",
        "amenity": "parking",
        "name": "Parliament Visitor Parking"
      },
      "geometry": {
        "type": "Point",
        "coordinates": [
          77.2100168,
          28.6162015
        ]
      },
      "id": "node/943245928"
    },
    {
      "type": "Feature",
      "properties": {
        "@id": "node/943560039",
        "amenity": "toilets",
        "fee": "no"
      },
      "geometry": {
        "type": "Point",
        "coordinates": [
          77.2061926,
          28.6263032
        ]
      },
      "id": "node/943560039"
    },
    {
      "type": "Feature",
      "properties": {
        "@id": "node/947950058",
        "amenity": "embassy",
        "country": "NO",
        "diplomatic": "embassy",
        "name": "Embassy of Norway"
      },
      "geometry": {
        "type": "Point",
        "coordinates": [
          77.1940746,
          28.6009268
        ]
      },
      "id": "node/947950058"
    },
    {
      "type": "Feature",
      "properties": {
        "@id": "node/947950059",
        "amenity": "embassy",
        "country": "AU",
        "diplomatic": "embassy",
        "name": "High Commission of Australia"
      },
      "geometry": {
        "type": "Point",
        "coordinates": [
          77.1917746,
          28.5954831
        ]
      },
      "id": "node/947950059"
    },
    {
      "type": "Feature",
      "properties": {
        "@id": "node/947950102",
        "addr:housenumber": "50 N",
        "addr:postcode": "110021",
        "addr:street": "Nyaya Marg",
        "amenity": "embassy",
        "country": "TH",
        "diplomatic": "embassy",
        "name": "Embassy of Thailand",
        "name:fr": "Ambassade de Thaïlande",
        "name:hi": "थाईलैंड की दूतावास",
        "website": "http://newdelhi.thaiembassy.org/en/"
      },
      "geometry": {
        "type": "Point",
        "coordinates": [
          77.1819343,
          28.5891125
        ]
      },
      "id": "node/947950102"
    },
    {
      "type": "Feature",
      "properties": {
        "@id": "node/947950144",
        "addr:housenumber": "9",
        "addr:postcode": "110021",
        "addr:street": "Chandragupta Marg",
        "amenity": "embassy",
        "country": "KR",
        "diplomatic": "embassy",
        "name": "Embassy of the Republic of Korea",
        "name:en": "Embassy of the Republic of Korea",
        "name:fr": "Ambassade de Corée du Sud",
        "name:hi": "कोरिया गणराज्य के दूतावास",
        "phone": "+91 11 4200 7000",
        "website": "http://overseas.mofa.go.kr/in-en/index.do"
      },
      "geometry": {
        "type": "Point",
        "coordinates": [
          77.180038,
          28.5897641
        ]
      },
      "id": "node/947950144"
    },
    {
      "type": "Feature",
      "properties": {
        "@id": "node/947950188",
        "addr:city": "New Delhi",
        "addr:housenumber": "6/50 F",
        "addr:postcode": "110021",
        "addr:street": "Shantipath",
        "amenity": "embassy",
        "country": "NL",
        "diplomatic": "embassy",
        "email": "nde@minbuza.nl",
        "fax": "+911124197710",
        "name": "Embassy of the Kingdom of the Netherlands",
        "name:fr": "Ambassade des Pays-Bas",
        "opening_hours": "Mo-Fr 09:00-17:00",
        "phone": "+911124197600",
        "website": "https://www.nederlandwereldwijd.nl/landen/india/over-ons/ambassade-in-new-delhi"
      },
      "geometry": {
        "type": "Point",
        "coordinates": [
          77.1856657,
          28.5912319
        ]
      },
      "id": "node/947950188"
    },
    {
      "type": "Feature",
      "properties": {
        "@id": "node/947950197",
        "addr:postcode": "110021",
        "amenity": "embassy",
        "country": "JP",
        "diplomatic": "embassy",
        "name": "Embassy of Japan",
        "name:en": "Embassy of Japan",
        "name:hi": "जापान की दूतावास",
        "name:ja": "在インド日本国大使館",
        "phone": "+91-11-2687-6564",
        "website": "https://www.in.emb-japan.go.jp/index.html"
      },
      "geometry": {
        "type": "Point",
        "coordinates": [
          77.1891752,
          28.590285
        ]
      },
      "id": "node/947950197"
    },
    {
      "type": "Feature",
      "properties": {
        "@id": "node/947950294",
        "addr:housenumber": "5/50-F",
        "addr:postcode": "110021",
        "addr:street": "Shanti Path",
        "amenity": "embassy",
        "country": "AF",
        "diplomatic": "embassy",
        "name": "Embassy of Afghanistan",
        "name:hi": "अफ़ग़ानिस्तान की दूतावास",
        "phone": "+91 11 2410 0412",
        "website": "http://newdelhi.mfa.af",
        "wikidata": "Q1854458"
      },
      "geometry": {
        "type": "Point",
        "coordinates": [
          77.1857326,
          28.5920784
        ]
      },
      "id": "node/947950294"
    },
    {
      "type": "Feature",
      "properties": {
        "@id": "node/947950334",
        "addr:housenumber": "EP-4",
        "addr:postcode": "110021",
        "addr:street": "Chandragupta Marg",
        "amenity": "embassy",
        "country": "NG",
        "diplomatic": "embassy",
        "name": "Embassy of Nigeria",
        "name:en": "High Commission of Nigeria",
        "name:hi": "नाइजीरिया का उच्चायोग",
        "phone": "+91 11 2412 2143"
      },
      "geometry": {
        "type": "Point",
        "coordinates": [
          77.1789689,
          28.5872469
        ]
      },
      "id": "node/947950334"
    },
    {
      "type": "Feature",
      "properties": {
        "@id": "node/947950476",
        "addr:postcode": "110021",
        "addr:street": "Shanti Path",
        "amenity": "embassy",
        "country": "RU",
        "diplomatic": "embassy",
        "name": "Embassy of Russia",
        "name:en": "Embassy of the Russian Federation",
        "name:hi": "रूस की दूतावास",
        "name:ru": "Посольство Российской Федерации",
        "phone": "+91 11 2687 3799",
        "website": "http://rusembindia.com",
        "wikidata": "Q16687395"
      },
      "geometry": {
        "type": "Point",
        "coordinates": [
          77.1864655,
          28.5933815
        ]
      },
      "id": "node/947950476"
    },
    {
      "type": "Feature",
      "properties": {
        "@id": "node/947950533",
        "addr:housenumber": "50 N",
        "addr:postcode": "110021",
        "addr:street": "Satya Marg",
        "amenity": "embassy",
        "country": "GH",
        "diplomatic": "embassy",
        "name": "Embassy of Ghana",
        "name:en": "High Commission of Ghana",
        "name:fr": "Ambassade du Ghana",
        "name:hi": "घाना का उच्चायोग",
        "phone": "+91 11 2419 3500",
        "website": "http://www.ghana-mission.co.in"
      },
      "geometry": {
        "type": "Point",
        "coordinates": [
          77.1835741,
          28.5884771
        ]
      },
      "id": "node/947950533"
    },
    {
      "type": "Feature",
      "properties": {
        "@id": "node/947950575",
        "amenity": "embassy",
        "country": "SD",
        "name": "Sudan",
        "name:en": "Embassy of Sudan"
      },
      "geometry": {
        "type": "Point",
        "coordinates": [
          77.1899653,
          28.5920747
        ]
      },
      "id": "node/947950575"
    },
    {
      "type": "Feature",
      "properties": {
        "@id": "node/947950639",
        "addr:postcode": "110021",
        "addr:street": "Shanti Path",
        "amenity": "embassy",
        "country": "GB",
        "diplomatic": "high_commission",
        "name": "Great Britain",
        "name:en": "High Commission of the United Kingdom of Great Britain and Northern Ireland",
        "name:hi": "वृहत् ब्रिटेन और उत्तरी आयरलैण्ड का यूनाइटेड किंगडम के उच्चायोग",
        "phone": "+91 11 2419 2100",
        "website": "https://www.gov.uk/world/organisations/british-high-commission-new-delhi",
        "wikidata": "Q4970048"
      },
      "geometry": {
        "type": "Point",
        "coordinates": [
          77.1932387,
          28.5983229
        ]
      },
      "id": "node/947950639"
    },
    {
      "type": "Feature",
      "properties": {
        "@id": "node/947950754",
        "addr:postcode": "110021",
        "addr:street": "Sir Edmund Hillary Marg",
        "amenity": "embassy",
        "country": "NZ",
        "diplomatic": "embassy",
        "name": "Embassy of New Zealand",
        "name:en": "High Commission of New Zealand",
        "name:fr": "Ambassade de Nouvelle-Zélande",
        "name:hi": "न्यूजीलैंड का उच्चायोग",
        "phone": "+91 11 4688 3170",
        "website": "http://www.nzembassy.com/india"
      },
      "geometry": {
        "type": "Point",
        "coordinates": [
          77.1819434,
          28.587721
        ]
      },
      "id": "node/947950754"
    },
    {
      "type": "Feature",
      "properties": {
        "@id": "node/947950777",
        "addr:housenumber": "3/50-F",
        "addr:postcode": "110021",
        "addr:street": "Nyaya Marg",
        "amenity": "embassy",
        "country": "MM",
        "diplomatic": "embassy",
        "name": "Embassy of Myanmar",
        "name:hi": "म्यांमार की दूतावास",
        "phone": "+91 11 2467 8822",
        "website": "https://www.myanmedelhi.com/"
      },
      "geometry": {
        "type": "Point",
        "coordinates": [
          77.1872808,
          28.5948695
        ]
      },
      "id": "node/947950777"
    },
    {
      "type": "Feature",
      "properties": {
        "@id": "node/947950807",
        "amenity": "embassy",
        "country": "ID",
        "diplomatic": "embassy",
        "name": "Embassy of Indonesia"
      },
      "geometry": {
        "type": "Point",
        "coordinates": [
          77.1949563,
          28.6020528
        ]
      },
      "id": "node/947950807"
    },
    {
      "type": "Feature",
      "properties": {
        "@id": "node/947950842",
        "addr:housenumber": "2/50-G",
        "addr:postcode": "110021",
        "addr:street": "Shanti Path",
        "amenity": "embassy",
        "country": "PK",
        "diplomatic": "embassy",
        "name": "High Commission of Pakistan",
        "name:en": "High Commission of Pakistan",
        "name:hi": "पाकिस्तानी उच्चायोग",
        "phone": "+911126110601",
        "website": "http://pakhcnewdelhi.org.pk"
      },
      "geometry": {
        "type": "Point",
        "coordinates": [
          77.1909272,
          28.593804
        ]
      },
      "id": "node/947950842"
    },
    {
      "type": "Feature",
      "properties": {
        "@id": "node/947950909",
        "addr:housenumber": "E-6",
        "addr:postcode": "110021",
        "addr:street": "Chandragupta Marg",
        "amenity": "embassy",
        "country": "SG",
        "diplomatic": "high_commission",
        "name": "Singapore",
        "name:en": "High Commission of Singapore",
        "name:hi": "सिंगापुर का उच्चायोग",
        "phone": "+91 11 4600 0800",
        "website": "https://www.mfa.gov.sg/newdelhi"
      },
      "geometry": {
        "type": "Point",
        "coordinates": [
          77.1789112,
          28.5887908
        ]
      },
      "id": "node/947950909"
    },
    {
      "type": "Feature",
      "properties": {
        "@id": "node/947951039",
        "amenity": "restaurant",
        "name": "Museum Canteen"
      },
      "geometry": {
        "type": "Point",
        "coordinates": [
          77.1805708,
          28.5853414
        ]
      },
      "id": "node/947951039"
    },
    {
      "type": "Feature",
      "properties": {
        "@id": "node/947951058",
        "addr:housenumber": "7/8",
        "addr:postcode": "110021",
        "addr:street": "Shanti Path",
        "amenity": "embassy",
        "country": "CA",
        "diplomatic": "high_commission",
        "name": "Canada",
        "name:en": "High Commission of Canada",
        "name:hi": "कनाडा का उच्चायोग",
        "phone": "+91 11 4178 2000",
        "website": "http://www.india.gc.ca"
      },
      "geometry": {
        "type": "Point",
        "coordinates": [
          77.1847524,
          28.589971
        ]
      },
      "id": "node/947951058"
    },
    {
      "type": "Feature",
      "properties": {
        "@id": "node/1114868893",
        "amenity": "post_box",
        "name": "Netaji Nagar Post Office"
      },
      "geometry": {
        "type": "Point",
        "coordinates": [
          77.1872498,
          28.5744997
        ]
      },
      "id": "node/1114868893"
    },
    {
      "type": "Feature",
      "properties": {
        "@id": "node/1114869680",
        "amenity": "fuel",
        "brand": "Indian Oil"
      },
      "geometry": {
        "type": "Point",
        "coordinates": [
          77.1864987,
          28.5701843
        ]
      },
      "id": "node/1114869680"
    },
    {
      "type": "Feature",
      "properties": {
        "@id": "node/1114871812",
        "amenity": "fire_station",
        "name": "Fire Station"
      },
      "geometry": {
        "type": "Point",
        "coordinates": [
          77.1843122,
          28.5685669
        ]
      },
      "id": "node/1114871812"
    },
    {
      "type": "Feature",
      "properties": {
        "@id": "node/1114905512",
        "amenity": "Netaji Nagar Market"
      },
      "geometry": {
        "type": "Point",
        "coordinates": [
          77.1878506,
          28.5752723
        ]
      },
      "id": "node/1114905512"
    },
    {
      "type": "Feature",
      "properties": {
        "@id": "node/1114908643",
        "amenity": "hospital",
        "name": "C.G.H.S Dispensary"
      },
      "geometry": {
        "type": "Point",
        "coordinates": [
          77.1860267,
          28.5722525
        ]
      },
      "id": "node/1114908643"
    },
    {
      "type": "Feature",
      "properties": {
        "@id": "node/1114913774",
        "amenity": "Suvidha Market, Netaji Nagar"
      },
      "geometry": {
        "type": "Point",
        "coordinates": [
          77.1864987,
          28.5772321
        ]
      },
      "id": "node/1114913774"
    },
    {
      "type": "Feature",
      "properties": {
        "@id": "node/1115011209",
        "amenity": "place_of_worship",
        "name": "Arya Samaj Mandir"
      },
      "geometry": {
        "type": "Point",
        "coordinates": [
          77.2026242,
          28.5773239
        ]
      },
      "id": "node/1115011209"
    },
    {
      "type": "Feature",
      "properties": {
        "@id": "node/1116432336",
        "amenity": "school",
        "name": "Govt. Girls Senior Secondary School"
      },
      "geometry": {
        "type": "Point",
        "coordinates": [
          77.1842457,
          28.573859
        ]
      },
      "id": "node/1116432336"
    },
    {
      "type": "Feature",
      "properties": {
        "@id": "node/1116433509",
        "amenity": "school",
        "name": "DPS International School"
      },
      "geometry": {
        "type": "Point",
        "coordinates": [
          77.1783234,
          28.5697886
        ]
      },
      "id": "node/1116433509"
    },
    {
      "type": "Feature",
      "properties": {
        "@id": "node/1116434111",
        "amenity": "school",
        "name": "Jose Martin Sarvodya Vidyalya"
      },
      "geometry": {
        "type": "Point",
        "coordinates": [
          77.1781517,
          28.5712962
        ]
      },
      "id": "node/1116434111"
    },
    {
      "type": "Feature",
      "properties": {
        "@id": "node/1116435329",
        "amenity": "cinema",
        "name": "Sangam"
      },
      "geometry": {
        "type": "Point",
        "coordinates": [
          77.1731735,
          28.5728037
        ]
      },
      "id": "node/1116435329"
    },
    {
      "type": "Feature",
      "properties": {
        "@id": "node/1116438504",
        "amenity": "parking",
        "name": "Palika Bhawan"
      },
      "geometry": {
        "type": "Point",
        "coordinates": [
          77.1845461,
          28.5710889
        ]
      },
      "id": "node/1116438504"
    },
    {
      "type": "Feature",
      "properties": {
        "@id": "node/1116439249",
        "amenity": "college",
        "name": "DCAC"
      },
      "geometry": {
        "type": "Point",
        "coordinates": [
          77.1845461,
          28.5778727
        ]
      },
      "id": "node/1116439249"
    },
    {
      "type": "Feature",
      "properties": {
        "@id": "node/1157203547",
        "amenity": "police"
      },
      "geometry": {
        "type": "Point",
        "coordinates": [
          77.1810077,
          28.6345193
        ]
      },
      "id": "node/1157203547"
    },
    {
      "type": "Feature",
      "properties": {
        "@id": "node/1157203900",
        "amenity": "place_of_worship"
      },
      "geometry": {
        "type": "Point",
        "coordinates": [
          77.1804069,
          28.6345475
        ]
      },
      "id": "node/1157203900"
    },
    {
      "type": "Feature",
      "properties": {
        "@id": "node/1194036839",
        "amenity": "Ayurvedic Hospital",
        "name": "Dr. Sudha`s Ayurveda Kendra"
      },
      "geometry": {
        "type": "Point",
        "coordinates": [
          77.1888793,
          28.5610013
        ]
      },
      "id": "node/1194036839"
    },
    {
      "type": "Feature",
      "properties": {
        "@id": "node/1194037559",
        "amenity": "school",
        "name": "Green Fields School"
      },
      "geometry": {
        "type": "Point",
        "coordinates": [
          77.1941388,
          28.5663367
        ]
      },
      "id": "node/1194037559"
    },
    {
      "type": "Feature",
      "properties": {
        "@id": "node/1210316392",
        "amenity": "school",
        "name": "Army Public School, Dhaula Kuan",
        "wikidata": "Q4794221"
      },
      "geometry": {
        "type": "Point",
        "coordinates": [
          77.1686468,
          28.6016242
        ]
      },
      "id": "node/1210316392"
    },
    {
      "type": "Feature",
      "properties": {
        "@id": "node/1210337098",
        "amenity": "House",
        "name": "212, Defense Officers Enclave, Dhaula Kuan Part 2"
      },
      "geometry": {
        "type": "Point",
        "coordinates": [
          77.1662435,
          28.6008612
        ]
      },
      "id": "node/1210337098"
    },
    {
      "type": "Feature",
      "properties": {
        "@id": "node/1241932078",
        "amenity": "restaurant",
        "cmt": "06-JAN-10 13:50:21",
        "description": "06-JAN-10 13:50:21",
        "ele": "235.406738",
        "name": "Bangla Foods",
        "source": "GPS",
        "sym": "Restaurant"
      },
      "geometry": {
        "type": "Point",
        "coordinates": [
          77.2084285,
          28.6334431
        ]
      },
      "id": "node/1241932078"
    },
    {
      "type": "Feature",
      "properties": {
        "@id": "node/1328248365",
        "amenity": "public_building",
        "building": "yes",
        "name": "ISRO Earth Station"
      },
      "geometry": {
        "type": "Point",
        "coordinates": [
          77.181237,
          28.6090395
        ]
      },
      "id": "node/1328248365"
    },
    {
      "type": "Feature",
      "properties": {
        "@id": "node/1328248392",
        "amenity": "place_of_worship",
        "denomination": "sufi",
        "name": "Moluddin Chishti Dargah",
        "religion": "muslim"
      },
      "geometry": {
        "type": "Point",
        "coordinates": [
          77.1808184,
          28.6077134
        ]
      },
      "id": "node/1328248392"
    },
    {
      "type": "Feature",
      "properties": {
        "@id": "node/1393281031",
        "addr:housename": "B",
        "addr:place": "Connaught Place",
        "addr:postcode": "110001",
        "amenity": "fast_food",
        "brand": "McDonald's",
        "brand:wikidata": "Q38076",
        "brand:wikipedia": "en:McDonald's",
        "cuisine": "burger",
        "diet:vegetarian": "yes",
        "name": "McDonald's",
        "takeaway": "yes"
      },
      "geometry": {
        "type": "Point",
        "coordinates": [
          77.2191465,
          28.6342661
        ]
      },
      "id": "node/1393281031"
    },
    {
      "type": "Feature",
      "properties": {
        "@id": "node/1480729647",
        "amenity": "fuel"
      },
      "geometry": {
        "type": "Point",
        "coordinates": [
          77.0675759,
          28.5750095
        ]
      },
      "id": "node/1480729647"
    },
    {
      "type": "Feature",
      "properties": {
        "@id": "node/1480729649",
        "amenity": "fuel"
      },
      "geometry": {
        "type": "Point",
        "coordinates": [
          77.067756,
          28.5752361
        ]
      },
      "id": "node/1480729649"
    },
    {
      "type": "Feature",
      "properties": {
        "@id": "node/1549833076",
        "amenity": "parking",
        "name": "DSUI Parking"
      },
      "geometry": {
        "type": "Point",
        "coordinates": [
          77.1621077,
          28.5947727
        ]
      },
      "id": "node/1549833076"
    },
    {
      "type": "Feature",
      "properties": {
        "@id": "node/1556460104",
        "amenity": "atm",
        "operator": "Citibank"
      },
      "geometry": {
        "type": "Point",
        "coordinates": [
          77.0846576,
          28.5560688
        ]
      },
      "id": "node/1556460104"
    },
    {
      "type": "Feature",
      "properties": {
        "@id": "node/1556466158",
        "amenity": "restaurant",
        "cuisine": "thai",
        "name": "Spice Route"
      },
      "geometry": {
        "type": "Point",
        "coordinates": [
          77.2181175,
          28.6253844
        ]
      },
      "id": "node/1556466158"
    },
    {
      "type": "Feature",
      "properties": {
        "@id": "node/1556467803",
        "amenity": "restaurant",
        "cuisine": "thai",
        "name": "Good Earth"
      },
      "geometry": {
        "type": "Point",
        "coordinates": [
          77.226395,
          28.5995254
        ]
      },
      "id": "node/1556467803"
    },
    {
      "type": "Feature",
      "properties": {
        "@id": "node/1563325267",
        "amenity": "restaurant",
        "name": "Nathus Sweets"
      },
      "geometry": {
        "type": "Point",
        "coordinates": [
          77.2320267,
          28.6297269
        ]
      },
      "id": "node/1563325267"
    },
    {
      "type": "Feature",
      "properties": {
        "@id": "node/1563325307",
        "amenity": "restaurant",
        "cuisine": "north_indian;south_indian;chinese",
        "name": "Benagali Sweet House",
        "phone": "+91-11-2335-3310;+91-11-2331-9224"
      },
      "geometry": {
        "type": "Point",
        "coordinates": [
          77.2318985,
          28.629465
        ]
      },
      "id": "node/1563325307"
    },
    {
      "type": "Feature",
      "properties": {
        "@id": "node/1582385446",
        "amenity": "restaurant",
        "cuisine": "regional"
      },
      "geometry": {
        "type": "Point",
        "coordinates": [
          77.1328702,
          28.5384129
        ]
      },
      "id": "node/1582385446"
    },
    {
      "type": "Feature",
      "properties": {
        "@id": "node/1669067086",
        "amenity": "marketplace",
        "name": "Shankar Market"
      },
      "geometry": {
        "type": "Point",
        "coordinates": [
          77.1807881,
          28.6379089
        ]
      },
      "id": "node/1669067086"
    },
    {
      "type": "Feature",
      "properties": {
        "@id": "node/1669092809",
        "amenity": "place_of_worship",
        "name": "Sanatan Dharam Mandir"
      },
      "geometry": {
        "type": "Point",
        "coordinates": [
          77.1836935,
          28.6361213
        ]
      },
      "id": "node/1669092809"
    },
    {
      "type": "Feature",
      "properties": {
        "@id": "node/1740866645",
        "amenity": "marketplace",
        "name": "Nauroji Nagar Market"
      },
      "geometry": {
        "type": "Point",
        "coordinates": [
          77.1943724,
          28.5677083
        ]
      },
      "id": "node/1740866645"
    },
    {
      "type": "Feature",
      "properties": {
        "@id": "node/1740889311",
        "amenity": "place_of_worship"
      },
      "geometry": {
        "type": "Point",
        "coordinates": [
          77.1937231,
          28.5674187
        ]
      },
      "id": "node/1740889311"
    },
    {
      "type": "Feature",
      "properties": {
        "@id": "node/1740891891",
        "amenity": "place_of_worship",
        "name": "Gurudwara Moti Bagh Sahib",
        "religion": "sikh"
      },
      "geometry": {
        "type": "Point",
        "coordinates": [
          77.1712306,
          28.586024
        ]
      },
      "id": "node/1740891891"
    },
    {
      "type": "Feature",
      "properties": {
        "@id": "node/1854125579",
        "amenity": "library",
        "name": "Central Library",
        "name:en": "unknown"
      },
      "geometry": {
        "type": "Point",
        "coordinates": [
          77.1683426,
          28.5402647
        ]
      },
      "id": "node/1854125579"
    },
    {
      "type": "Feature",
      "properties": {
        "@id": "node/1854130790",
        "amenity": "school",
        "name": "school of social sciences1"
      },
      "geometry": {
        "type": "Point",
        "coordinates": [
          77.1671958,
          28.5402304
        ]
      },
      "id": "node/1854130790"
    },
    {
      "type": "Feature",
      "properties": {
        "@id": "node/1966254710",
        "amenity": "atm",
        "operator": "Andhra Bank"
      },
      "geometry": {
        "type": "Point",
        "coordinates": [
          77.225608,
          28.6168137
        ]
      },
      "id": "node/1966254710"
    },
    {
      "type": "Feature",
      "properties": {
        "@id": "node/1966254717",
        "amenity": "restaurant",
        "cuisine": "asian;indian",
        "name": "Andhra Bhawan Canteen",
        "name:ru": "Кафе Andhra Pradesh Bhavan"
      },
      "geometry": {
        "type": "Point",
        "coordinates": [
          77.225998,
          28.6169212
        ]
      },
      "id": "node/1966254717"
    },
    {
      "type": "Feature",
      "properties": {
        "@id": "node/2008756209",
        "amenity": "cafe",
        "name": "Cheela Cafe"
      },
      "geometry": {
        "type": "Point",
        "coordinates": [
          77.1322417,
          28.5391092
        ]
      },
      "id": "node/2008756209"
    },
    {
      "type": "Feature",
      "properties": {
        "@id": "node/2025432151",
        "amenity": "fast_food",
        "brand": "KFC",
        "brand:wikidata": "Q524757",
        "brand:wikipedia": "en:KFC",
        "cuisine": "chicken",
        "name": "KFC",
        "takeaway": "yes"
      },
      "geometry": {
        "type": "Point",
        "coordinates": [
          77.1643429,
          28.5571888
        ]
      },
      "id": "node/2025432151"
    },
    {
      "type": "Feature",
      "properties": {
        "@id": "node/2025432315",
        "amenity": "fast_food",
        "brand": "Domino's Pizza",
        "brand:wikidata": "Q839466",
        "brand:wikipedia": "en:Domino's Pizza",
        "cuisine": "pizza",
        "level": "0",
        "name": "Domino's Pizza",
        "takeaway": "yes"
      },
      "geometry": {
        "type": "Point",
        "coordinates": [
          77.1643785,
          28.5578353
        ]
      },
      "id": "node/2025432315"
    },
    {
      "type": "Feature",
      "properties": {
        "@id": "node/2025439615",
        "amenity": "bank",
        "name": "CITI Bank"
      },
      "geometry": {
        "type": "Point",
        "coordinates": [
          77.1640421,
          28.5580982
        ]
      },
      "id": "node/2025439615"
    },
    {
      "type": "Feature",
      "properties": {
        "@id": "node/2025439677",
        "amenity": "fuel",
        "brand": "Indian Oil"
      },
      "geometry": {
        "type": "Point",
        "coordinates": [
          77.1633987,
          28.5578343
        ]
      },
      "id": "node/2025439677"
    },
    {
      "type": "Feature",
      "properties": {
        "@id": "node/2025440633",
        "amenity": "marketplace",
        "name": "E Block Market"
      },
      "geometry": {
        "type": "Point",
        "coordinates": [
          77.1598368,
          28.5609535
        ]
      },
      "id": "node/2025440633"
    },
    {
      "type": "Feature",
      "properties": {
        "@id": "node/2101275303",
        "amenity": "bar",
        "name": "Tripti Bar",
        "wifi": "yes"
      },
      "geometry": {
        "type": "Point",
        "coordinates": [
          77.1278858,
          28.5486023
        ]
      },
      "id": "node/2101275303"
    },
    {
      "type": "Feature",
      "properties": {
        "@id": "node/2106104833",
        "amenity": "fast_food",
        "name": "Kathi Rolls",
        "name:en": "Nizam's Kathi Kabab"
      },
      "geometry": {
        "type": "Point",
        "coordinates": [
          77.2194616,
          28.6349295
        ]
      },
      "id": "node/2106104833"
    },
    {
      "type": "Feature",
      "properties": {
        "@id": "node/2209543836",
        "amenity": "bar",
        "name": "mohini bar"
      },
      "geometry": {
        "type": "Point",
        "coordinates": [
          77.2238762,
          28.6332767
        ]
      },
      "id": "node/2209543836"
    },
    {
      "type": "Feature",
      "properties": {
        "@id": "node/2318172256",
        "addr:city": "New Delhi",
        "addr:housenumber": "B-1/12",
        "addr:postcode": "110029",
        "addr:street": "Safdarjung Enclave",
        "amenity": "hospital",
        "name": "Goyal MRI & Diagnostic Centre",
        "phone": "+91-11-40771234"
      },
      "geometry": {
        "type": "Point",
        "coordinates": [
          77.1893283,
          28.5647144
        ]
      },
      "id": "node/2318172256"
    },
    {
      "type": "Feature",
      "properties": {
        "@id": "node/2323525287",
        "amenity": "toilets"
      },
      "geometry": {
        "type": "Point",
        "coordinates": [
          77.2169307,
          28.6277103
        ]
      },
      "id": "node/2323525287"
    },
    {
      "type": "Feature",
      "properties": {
        "@id": "node/2327524028",
        "amenity": "restaurant",
        "cuisine": "asian;chinese;thai",
        "name": "Berco's"
      },
      "geometry": {
        "type": "Point",
        "coordinates": [
          77.2172154,
          28.6323764
        ]
      },
      "id": "node/2327524028"
    },
    {
      "type": "Feature",
      "properties": {
        "@id": "node/2327524039",
        "addr:housename": "A",
        "alt_name": "Kentucky Fried Chicken",
        "amenity": "fast_food",
        "brand": "KFC",
        "brand:wikidata": "Q524757",
        "brand:wikipedia": "en:KFC",
        "cuisine": "chicken",
        "name": "KFC",
        "opening_hours": "Mo-Su 11:00-23:00",
        "takeaway": "yes"
      },
      "geometry": {
        "type": "Point",
        "coordinates": [
          77.2179689,
          28.633114
        ]
      },
      "id": "node/2327524039"
    },
    {
      "type": "Feature",
      "properties": {
        "@id": "node/2327524046",
        "amenity": "atm",
        "operator": "YES Bank"
      },
      "geometry": {
        "type": "Point",
        "coordinates": [
          77.2195527,
          28.6272942
        ]
      },
      "id": "node/2327524046"
    },
    {
      "type": "Feature",
      "properties": {
        "@id": "node/2327524049",
        "amenity": "atm",
        "operator": "Central bank of India"
      },
      "geometry": {
        "type": "Point",
        "coordinates": [
          77.2195823,
          28.6278063
        ]
      },
      "id": "node/2327524049"
    },
    {
      "type": "Feature",
      "properties": {
        "@id": "node/2327524052",
        "amenity": "atm",
        "operator": "ICICI Bank"
      },
      "geometry": {
        "type": "Point",
        "coordinates": [
          77.2196177,
          28.6282898
        ]
      },
      "id": "node/2327524052"
    },
    {
      "type": "Feature",
      "properties": {
        "@id": "node/2327524066",
        "amenity": "toilets",
        "fee": "no"
      },
      "geometry": {
        "type": "Point",
        "coordinates": [
          77.2207958,
          28.6323321
        ]
      },
      "id": "node/2327524066"
    },
    {
      "type": "Feature",
      "properties": {
        "@id": "node/2327524069",
        "amenity": "toilets",
        "fee": "no"
      },
      "geometry": {
        "type": "Point",
        "coordinates": [
          77.2205603,
          28.6335073
        ]
      },
      "id": "node/2327524069"
    },
    {
      "type": "Feature",
      "properties": {
        "@id": "node/2389530256",
        "addr:postcode": "110003",
        "addr:street": "Lodhi Estate",
        "amenity": "school",
        "name": "Shyama Prasad Vidyalaya",
        "source": "Survey"
      },
      "geometry": {
        "type": "Point",
        "coordinates": [
          77.2253633,
          28.5968399
        ]
      },
      "id": "node/2389530256"
    },
    {
      "type": "Feature",
      "properties": {
        "@id": "node/2408446621",
        "amenity": "police",
        "name": "Dwarka Ploce Station"
      },
      "geometry": {
        "type": "Point",
        "coordinates": [
          77.0584523,
          28.5649687
        ]
      },
      "id": "node/2408446621"
    },
    {
      "type": "Feature",
      "properties": {
        "@id": "node/2408446930",
        "amenity": "school",
        "name": "Delhi International School"
      },
      "geometry": {
        "type": "Point",
        "coordinates": [
          77.0578228,
          28.5642198
        ]
      },
      "id": "node/2408446930"
    },
    {
      "type": "Feature",
      "properties": {
        "@id": "node/2408447122",
        "amenity": "school",
        "name": "Paramount International School"
      },
      "geometry": {
        "type": "Point",
        "coordinates": [
          77.0574223,
          28.5637249
        ]
      },
      "id": "node/2408447122"
    },
    {
      "type": "Feature",
      "properties": {
        "@id": "node/2408447131",
        "amenity": "school",
        "name": "Basava International School"
      },
      "geometry": {
        "type": "Point",
        "coordinates": [
          77.055416,
          28.5648745
        ]
      },
      "id": "node/2408447131"
    },
    {
      "type": "Feature",
      "properties": {
        "@id": "node/2408447150",
        "amenity": "school",
        "name": "The Indian Heights School",
        "wikidata": "Q16901497"
      },
      "geometry": {
        "type": "Point",
        "coordinates": [
          77.0527553,
          28.5618497
        ]
      },
      "id": "node/2408447150"
    },
    {
      "type": "Feature",
      "properties": {
        "@id": "node/2408447793",
        "amenity": "atm",
        "fee": "No Fee",
        "operator": "Many like OBC, KOtak, SBI"
      },
      "geometry": {
        "type": "Point",
        "coordinates": [
          77.0544612,
          28.5646484
        ]
      },
      "id": "node/2408447793"
    },
    {
      "type": "Feature",
      "properties": {
        "@id": "node/2408447819",
        "amenity": "school",
        "name": "Mount Carmel"
      },
      "geometry": {
        "type": "Point",
        "coordinates": [
          77.0586025,
          28.560653
        ]
      },
      "id": "node/2408447819"
    },
    {
      "type": "Feature",
      "properties": {
        "@id": "node/2408448086",
        "amenity": "kindergarten",
        "name": "Mount Carmel Junior"
      },
      "geometry": {
        "type": "Point",
        "coordinates": [
          77.0600294,
          28.5615953
        ]
      },
      "id": "node/2408448086"
    },
    {
      "type": "Feature",
      "properties": {
        "@id": "node/2408448503",
        "amenity": "bank",
        "atm": "yes",
        "name": "HDFC"
      },
      "geometry": {
        "type": "Point",
        "coordinates": [
          77.0597397,
          28.5603703
        ]
      },
      "id": "node/2408448503"
    },
    {
      "type": "Feature",
      "properties": {
        "@id": "node/2408448732",
        "amenity": "kindergarten",
        "name": "Kids Meadows"
      },
      "geometry": {
        "type": "Point",
        "coordinates": [
          77.0571541,
          28.5561109
        ]
      },
      "id": "node/2408448732"
    },
    {
      "type": "Feature",
      "properties": {
        "@id": "node/2408448881",
        "amenity": "place_of_worship",
        "name": "Sai Temple",
        "religion": "hindu"
      },
      "geometry": {
        "type": "Point",
        "coordinates": [
          77.0568107,
          28.5563996
        ]
      },
      "id": "node/2408448881"
    },
    {
      "type": "Feature",
      "properties": {
        "@id": "node/2410180164",
        "amenity": "atm",
        "operator": "State Bank of India"
      },
      "geometry": {
        "type": "Point",
        "coordinates": [
          77.2197715,
          28.6261056
        ]
      },
      "id": "node/2410180164"
    },
    {
      "type": "Feature",
      "properties": {
        "@id": "node/2410180165",
        "addr:housename": "B",
        "addr:place": "Connaught Place",
        "addr:postcode": "110001",
        "amenity": "atm",
        "opening_hours": "Mo-Su 06:00-22:00",
        "wheelchair": "no"
      },
      "geometry": {
        "type": "Point",
        "coordinates": [
          77.2195254,
          28.6347165
        ]
      },
      "id": "node/2410180165"
    },
    {
      "type": "Feature",
      "properties": {
        "@id": "node/2410180166",
        "addr:housename": "A",
        "amenity": "cafe",
        "brand": "Starbucks",
        "brand:wikidata": "Q37158",
        "brand:wikipedia": "en:Starbucks",
        "cuisine": "coffee_shop",
        "name": "Starbucks",
        "official_name": "Starbucks Coffee",
        "takeaway": "yes"
      },
      "geometry": {
        "type": "Point",
        "coordinates": [
          77.2177075,
          28.6321974
        ]
      },
      "id": "node/2410180166"
    },
    {
      "type": "Feature",
      "properties": {
        "@id": "node/2421574251",
        "addr:city": "New Delhi",
        "addr:street": "Naoroji Nagar Market",
        "addr:unit": "2A",
        "amenity": "restaurant",
        "cuisine": "indian",
        "name": "Baboo Da Punjabi Dhaba",
        "wifi": "no"
      },
      "geometry": {
        "type": "Point",
        "coordinates": [
          77.1945428,
          28.5678793
        ]
      },
      "id": "node/2421574251"
    },
    {
      "type": "Feature",
      "properties": {
        "@id": "node/2421934883",
        "addr:city": "New Delhi",
        "addr:street": "Khan Market",
        "amenity": "cafe",
        "name": "Cafe Turtle"
      },
      "geometry": {
        "type": "Point",
        "coordinates": [
          77.2273465,
          28.6002007
        ]
      },
      "id": "node/2421934883"
    },
    {
      "type": "Feature",
      "properties": {
        "@id": "node/2429555541",
        "amenity": "bank",
        "atm": "yes",
        "branch": "Basant Lok",
        "brand": "Oriental Bank of Commerce"
      },
      "geometry": {
        "type": "Point",
        "coordinates": [
          77.164279,
          28.5579851
        ]
      },
      "id": "node/2429555541"
    },
    {
      "type": "Feature",
      "properties": {
        "@id": "node/2429556221",
        "amenity": "bar",
        "name": "RPM",
        "opening_hours": "Mo-Su 12:00-01:00"
      },
      "geometry": {
        "type": "Point",
        "coordinates": [
          77.164158,
          28.5575936
        ]
      },
      "id": "node/2429556221"
    },
    {
      "type": "Feature",
      "properties": {
        "@id": "node/2429556253",
        "amenity": "restaurant",
        "brand": "Pizza Hut",
        "brand:wikidata": "Q191615",
        "brand:wikipedia": "en:Pizza Hut",
        "contact:phone": "+91-11-3988-3988",
        "cuisine": "pizza",
        "name": "Pizza Hut",
        "wheelchair": "no"
      },
      "geometry": {
        "type": "Point",
        "coordinates": [
          77.1640349,
          28.5575626
        ]
      },
      "id": "node/2429556253"
    },
    {
      "type": "Feature",
      "properties": {
        "@id": "node/2446002922",
        "amenity": "school",
        "name": "Sindhi Higher Secondary School"
      },
      "geometry": {
        "type": "Point",
        "coordinates": [
          77.1778604,
          28.6357621
        ]
      },
      "id": "node/2446002922"
    },
    {
      "type": "Feature",
      "properties": {
        "@id": "node/2446006348",
        "amenity": "school",
        "name": "Manav Sthali School"
      },
      "geometry": {
        "type": "Point",
        "coordinates": [
          77.1782466,
          28.6352772
        ]
      },
      "id": "node/2446006348"
    },
    {
      "type": "Feature",
      "properties": {
        "@id": "node/2446006877",
        "amenity": "school",
        "name": "Andh Kanya Vidyalaya"
      },
      "geometry": {
        "type": "Point",
        "coordinates": [
          77.1803119,
          28.6368309
        ]
      },
      "id": "node/2446006877"
    },
    {
      "type": "Feature",
      "properties": {
        "@id": "node/2446007658",
        "amenity": "police",
        "name": "Rajendra Nagar Police Station"
      },
      "geometry": {
        "type": "Point",
        "coordinates": [
          77.1826937,
          28.634698
        ]
      },
      "id": "node/2446007658"
    },
    {
      "type": "Feature",
      "properties": {
        "@id": "node/2446009092",
        "amenity": "school",
        "name": "DI Khan Bharati Sabha Higher Secondary School"
      },
      "geometry": {
        "type": "Point",
        "coordinates": [
          77.1795502,
          28.6307618
        ]
      },
      "id": "node/2446009092"
    },
    {
      "type": "Feature",
      "properties": {
        "@id": "node/2446009093",
        "amenity": "school",
        "name": "Bapu Adarsh Vidyalaya"
      },
      "geometry": {
        "type": "Point",
        "coordinates": [
          77.1804675,
          28.6306394
        ]
      },
      "id": "node/2446009093"
    },
    {
      "type": "Feature",
      "properties": {
        "@id": "node/2455846398",
        "addr:city": "New Delhi",
        "addr:street": "Khan Market",
        "amenity": "restaurant",
        "name": "Big Chill"
      },
      "geometry": {
        "type": "Point",
        "coordinates": [
          77.2282311,
          28.6045562
        ]
      },
      "id": "node/2455846398"
    },
    {
      "type": "Feature",
      "properties": {
        "@id": "node/2511126252",
        "amenity": "fuel",
        "source:amenity": "survey"
      },
      "geometry": {
        "type": "Point",
        "coordinates": [
          77.1064612,
          28.5335404
        ]
      },
      "id": "node/2511126252"
    },
    {
      "type": "Feature",
      "properties": {
        "@id": "node/2511126268",
        "amenity": "fuel",
        "brand": "Hindustan Petroleum",
        "source:amenity": "survey"
      },
      "geometry": {
        "type": "Point",
        "coordinates": [
          77.116556,
          28.5403844
        ]
      },
      "id": "node/2511126268"
    },
    {
      "type": "Feature",
      "properties": {
        "@id": "node/2591114289",
        "amenity": "cafe",
        "level": "2",
        "name": "Indian Coffee House"
      },
      "geometry": {
        "type": "Point",
        "coordinates": [
          77.2160507,
          28.6306895
        ]
      },
      "id": "node/2591114289"
    },
    {
      "type": "Feature",
      "properties": {
        "@id": "node/2591114291",
        "amenity": "fast_food",
        "cuisine": "indian",
        "internet_access": "no",
        "name": "Pani Puri Shop"
      },
      "geometry": {
        "type": "Point",
        "coordinates": [
          77.1971881,
          28.5759039
        ]
      },
      "id": "node/2591114291"
    },
    {
      "type": "Feature",
      "properties": {
        "@id": "node/2592537220",
        "amenity": "embassy",
        "country": "HU",
        "diplomatic": "embassy",
        "name": "Embassy of the Republic of Hungary",
        "name:fr": "Ambassade de la République d'Hongrie",
        "name:hu": "Magyarország Nagykovetsége"
      },
      "geometry": {
        "type": "Point",
        "coordinates": [
          77.1875122,
          28.5851902
        ]
      },
      "id": "node/2592537220"
    },
    {
      "type": "Feature",
      "properties": {
        "@id": "node/2592537522",
        "amenity": "toilets",
        "fee": "no"
      },
      "geometry": {
        "type": "Point",
        "coordinates": [
          77.2185643,
          28.6408956
        ]
      },
      "id": "node/2592537522"
    },
    {
      "type": "Feature",
      "properties": {
        "@id": "node/2654011278",
        "addr:city": "New Delhi",
        "addr:housenumber": "A 23",
        "addr:postcode": "110001",
        "addr:street": "Connaught Circus (Indira Chowk), Connaught Place",
        "amenity": "fuel",
        "name": "Indian Oil Petrol Pump"
      },
      "geometry": {
        "type": "Point",
        "coordinates": [
          77.2178321,
          28.6337158
        ]
      },
      "id": "node/2654011278"
    },
    {
      "type": "Feature",
      "properties": {
        "@id": "node/2677421751",
        "amenity": "police"
      },
      "geometry": {
        "type": "Point",
        "coordinates": [
          77.1652197,
          28.5942848
        ]
      },
      "id": "node/2677421751"
    },
    {
      "type": "Feature",
      "properties": {
        "@id": "node/2697736906",
        "addr:city": "New Delhi",
        "addr:housenumber": "1",
        "addr:postcode": "110003",
        "addr:street": "Amrita Shergil Lane",
        "amenity": "taxi",
        "capacity": "8",
        "name": "Allied Car Rental Taxi Stand",
        "operator": "Ajit Singh",
        "phone": "+91 11 2469-0077",
        "website": "www.alliedindia.in"
      },
      "geometry": {
        "type": "Point",
        "coordinates": [
          77.215799,
          28.5899699
        ]
      },
      "id": "node/2697736906"
    },
    {
      "type": "Feature",
      "properties": {
        "@id": "node/2709534496",
        "addr:city": "New Delhi",
        "addr:postcode": "110001",
        "addr:street": "Radial Road 6",
        "amenity": "restaurant",
        "capacity": "50",
        "name": "Keshav Restaurant",
        "opening_hours": "Mo-Su 10:00-18:00",
        "phone": "+91-90154-84272"
      },
      "geometry": {
        "type": "Point",
        "coordinates": [
          77.2230833,
          28.6337495
        ]
      },
      "id": "node/2709534496"
    },
    {
      "type": "Feature",
      "properties": {
        "@id": "node/2713825015",
        "amenity": "embassy",
        "country": "EG",
        "diplomatic": "embassy",
        "name": "Embassy of Egypt",
        "name:fr": "Ambassade de la République Arabe d'Égypte"
      },
      "geometry": {
        "type": "Point",
        "coordinates": [
          77.1893357,
          28.5860554
        ]
      },
      "id": "node/2713825015"
    },
    {
      "type": "Feature",
      "properties": {
        "@id": "node/2799293122",
        "access": "public",
        "amenity": "toilets",
        "toilets:disposal": "flush"
      },
      "geometry": {
        "type": "Point",
        "coordinates": [
          77.2171625,
          28.5920709
        ]
      },
      "id": "node/2799293122"
    },
    {
      "type": "Feature",
      "properties": {
        "@id": "node/2800783153",
        "amenity": "toilets"
      },
      "geometry": {
        "type": "Point",
        "coordinates": [
          77.2197885,
          28.5903223
        ]
      },
      "id": "node/2800783153"
    },
    {
      "type": "Feature",
      "properties": {
        "@id": "node/2800796131",
        "amenity": "toilets"
      },
      "geometry": {
        "type": "Point",
        "coordinates": [
          77.2210516,
          28.5928423
        ]
      },
      "id": "node/2800796131"
    },
    {
      "type": "Feature",
      "properties": {
        "@id": "node/2800796132",
        "amenity": "toilets"
      },
      "geometry": {
        "type": "Point",
        "coordinates": [
          77.223119,
          28.5959531
        ]
      },
      "id": "node/2800796132"
    },
    {
      "type": "Feature",
      "properties": {
        "@id": "node/2822335736",
        "amenity": "place_of_worship",
        "name": "St. Pauls Church",
        "religion": "christian"
      },
      "geometry": {
        "type": "Point",
        "coordinates": [
          77.1367823,
          28.5836242
        ]
      },
      "id": "node/2822335736"
    },
    {
      "type": "Feature",
      "properties": {
        "@id": "node/2833952243",
        "amenity": "place_of_worship",
        "name": "Lakshmi Narayan Temple",
        "name:de": "Lakshmi Narayan-Tempel (Birla Tempel)",
        "name:hi": "लक्ष्मी नारायण मंदिर",
        "name:zh": "拉克希米纳拉扬神庙",
        "religion": "hindu",
        "wikidata": "Q2426584"
      },
      "geometry": {
        "type": "Point",
        "coordinates": [
          77.1989712,
          28.6327513
        ]
      },
      "id": "node/2833952243"
    },
    {
      "type": "Feature",
      "properties": {
        "@id": "node/2833952245",
        "amenity": "school",
        "name": "M B Boys School"
      },
      "geometry": {
        "type": "Point",
        "coordinates": [
          77.2002755,
          28.6350118
        ]
      },
      "id": "node/2833952245"
    },
    {
      "type": "Feature",
      "properties": {
        "@id": "node/2833952246",
        "amenity": "school",
        "name": "Raisina Bengali School"
      },
      "geometry": {
        "type": "Point",
        "coordinates": [
          77.2008393,
          28.6362148
        ]
      },
      "id": "node/2833952246"
    },
    {
      "type": "Feature",
      "properties": {
        "@id": "node/2995730282",
        "amenity": "place_of_worship",
        "name": "St. Thomas Church",
        "religion": "christian"
      },
      "geometry": {
        "type": "Point",
        "coordinates": [
          77.1878147,
          28.5623491
        ]
      },
      "id": "node/2995730282"
    },
    {
      "type": "Feature",
      "properties": {
        "@id": "node/2995794882",
        "amenity": "place_of_worship",
        "religion": "hindu"
      },
      "geometry": {
        "type": "Point",
        "coordinates": [
          77.188803,
          28.565734
        ]
      },
      "id": "node/2995794882"
    },
    {
      "type": "Feature",
      "properties": {
        "@id": "node/3015900433",
        "amenity": "place_of_worship"
      },
      "geometry": {
        "type": "Point",
        "coordinates": [
          77.1562463,
          28.5267895
        ]
      },
      "id": "node/3015900433"
    },
    {
      "type": "Feature",
      "properties": {
        "@id": "node/3015900434",
        "amenity": "place_of_worship"
      },
      "geometry": {
        "type": "Point",
        "coordinates": [
          77.1563348,
          28.5266021
        ]
      },
      "id": "node/3015900434"
    },
    {
      "type": "Feature",
      "properties": {
        "@id": "node/3015900843",
        "amenity": "waste_basket"
      },
      "geometry": {
        "type": "Point",
        "coordinates": [
          77.1568337,
          28.5262333
        ]
      },
      "id": "node/3015900843"
    },
    {
      "type": "Feature",
      "properties": {
        "@id": "node/3015901839",
        "amenity": "bench"
      },
      "geometry": {
        "type": "Point",
        "coordinates": [
          77.1568002,
          28.526297
        ]
      },
      "id": "node/3015901839"
    },
    {
      "type": "Feature",
      "properties": {
        "@id": "node/3015901840",
        "amenity": "bench"
      },
      "geometry": {
        "type": "Point",
        "coordinates": [
          77.1567143,
          28.526634
        ]
      },
      "id": "node/3015901840"
    },
    {
      "type": "Feature",
      "properties": {
        "@id": "node/3015901841",
        "amenity": "bench"
      },
      "geometry": {
        "type": "Point",
        "coordinates": [
          77.1569799,
          28.5264007
        ]
      },
      "id": "node/3015901841"
    },
    {
      "type": "Feature",
      "properties": {
        "@id": "node/3015901842",
        "amenity": "bench"
      },
      "geometry": {
        "type": "Point",
        "coordinates": [
          77.1569343,
          28.5265161
        ]
      },
      "id": "node/3015901842"
    },
    {
      "type": "Feature",
      "properties": {
        "@id": "node/3015901843",
        "amenity": "bench"
      },
      "geometry": {
        "type": "Point",
        "coordinates": [
          77.1564448,
          28.5264772
        ]
      },
      "id": "node/3015901843"
    },
    {
      "type": "Feature",
      "properties": {
        "@id": "node/3077649256",
        "amenity": "embassy",
        "country": "PE",
        "diplomatic": "embassy",
        "name": "Peru Embassy"
      },
      "geometry": {
        "type": "Point",
        "coordinates": [
          77.1608233,
          28.5588743
        ]
      },
      "id": "node/3077649256"
    },
    {
      "type": "Feature",
      "properties": {
        "@id": "node/3085540679",
        "amenity": "bank",
        "brand:wikidata": "Q2003476",
        "brand:wikipedia": "en:Andhra Bank",
        "name": "Andhra Bank",
        "name:en": "Andhra Bank",
        "website": "https://www.andhrabank.in"
      },
      "geometry": {
        "type": "Point",
        "coordinates": [
          77.225769,
          28.6168699
        ]
      },
      "id": "node/3085540679"
    },
    {
      "type": "Feature",
      "properties": {
        "@id": "node/3242109751",
        "addr:housenumber": "P-5/90",
        "amenity": "cafe",
        "indoor_seating": "yes",
        "level": "0",
        "name": "Madras Coffee House",
        "start_date": "1935"
      },
      "geometry": {
        "type": "Point",
        "coordinates": [
          77.2163806,
          28.6318106
        ]
      },
      "id": "node/3242109751"
    },
    {
      "type": "Feature",
      "properties": {
        "@id": "node/3246081385",
        "amenity": "fuel",
        "fuel:diesel": "yes",
        "fuel:octane_95": "yes"
      },
      "geometry": {
        "type": "Point",
        "coordinates": [
          77.1813607,
          28.5709641
        ]
      },
      "id": "node/3246081385"
    },
    {
      "type": "Feature",
      "properties": {
        "@id": "node/3424229936",
        "amenity": "place_of_worship",
        "name": "Kaka Nagar Mosque",
        "religion": "muslim"
      },
      "geometry": {
        "type": "Point",
        "coordinates": [
          77.237501,
          28.6043118
        ]
      },
      "id": "node/3424229936"
    },
    {
      "type": "Feature",
      "properties": {
        "@id": "node/3424238432",
        "amenity": "fuel",
        "name": "Indian Oil"
      },
      "geometry": {
        "type": "Point",
        "coordinates": [
          77.2371519,
          28.602014
        ]
      },
      "id": "node/3424238432"
    },
    {
      "type": "Feature",
      "properties": {
        "@id": "node/3424252049",
        "amenity": "taxi"
      },
      "geometry": {
        "type": "Point",
        "coordinates": [
          77.2348035,
          28.6040808
        ]
      },
      "id": "node/3424252049"
    },
    {
      "type": "Feature",
      "properties": {
        "@id": "node/3424252050",
        "amenity": "taxi"
      },
      "geometry": {
        "type": "Point",
        "coordinates": [
          77.2335957,
          28.6033233
        ]
      },
      "id": "node/3424252050"
    },
    {
      "type": "Feature",
      "properties": {
        "@id": "node/3424256951",
        "amenity": "taxi"
      },
      "geometry": {
        "type": "Point",
        "coordinates": [
          77.2287256,
          28.6007521
        ]
      },
      "id": "node/3424256951"
    },
    {
      "type": "Feature",
      "properties": {
        "@id": "node/3424257252",
        "amenity": "taxi"
      },
      "geometry": {
        "type": "Point",
        "coordinates": [
          77.2306045,
          28.6019301
        ]
      },
      "id": "node/3424257252"
    },
    {
      "type": "Feature",
      "properties": {
        "@id": "node/3424259566",
        "amenity": "doctors",
        "name": "Dr. Gandhi"
      },
      "geometry": {
        "type": "Point",
        "coordinates": [
          77.2322767,
          28.6292249
        ]
      },
      "id": "node/3424259566"
    },
    {
      "type": "Feature",
      "properties": {
        "@id": "node/3424264696",
        "amenity": "doctors",
        "name": "Dr. Kundan Lal"
      },
      "geometry": {
        "type": "Point",
        "coordinates": [
          77.2319405,
          28.6293653
        ]
      },
      "id": "node/3424264696"
    },
    {
      "type": "Feature",
      "properties": {
        "@id": "node/3480944280",
        "addr:city": "New Delhi",
        "addr:country": "IN",
        "addr:housenumber": "4-5",
        "addr:postcode": "110021",
        "addr:street": "Nyaya Marg",
        "addr:suburb": "Chanakyapuri",
        "amenity": "embassy",
        "country": "SE",
        "diplomatic": "embassy",
        "fixme": "add local name",
        "name": "Embassy of Sweden",
        "name:en": "Embassy of Sweden",
        "name:fr": "Ambassade de Suède",
        "name:hi": "स्वीडन की दूतावास",
        "name:sv": "Sveriges ambassad",
        "phone": "+91 11 44197100",
        "target": "IN",
        "website": "https://www.swedenabroad.se/en/embassies/india-new-delhi/",
        "wikidata": "Q10686016"
      },
      "geometry": {
        "type": "Point",
        "coordinates": [
          77.1840596,
          28.5945167
        ]
      },
      "id": "node/3480944280"
    },
    {
      "type": "Feature",
      "properties": {
        "@id": "node/3556106101",
        "amenity": "bank",
        "atm": "yes",
        "brand:wikidata": "Q2743499",
        "name": "Punjab National Bank",
        "name:en": "Punjab National Bank",
        "short_name": "PNB",
        "website": "https://www.pnbindia.in",
        "wikidata": "Q2743499",
        "wikipedia": "en:Punjab National Bank"
      },
      "geometry": {
        "type": "Point",
        "coordinates": [
          77.057587,
          28.5561723
        ]
      },
      "id": "node/3556106101"
    },
    {
      "type": "Feature",
      "properties": {
        "@id": "node/3636480796",
        "amenity": "fast_food",
        "name": "Sassi"
      },
      "geometry": {
        "type": "Point",
        "coordinates": [
          77.1838762,
          28.5503435
        ]
      },
      "id": "node/3636480796"
    },
    {
      "type": "Feature",
      "properties": {
        "@id": "node/3704734413",
        "amenity": "restaurant",
        "name": "Nando's"
      },
      "geometry": {
        "type": "Point",
        "coordinates": [
          77.2197896,
          28.6310191
        ]
      },
      "id": "node/3704734413"
    },
    {
      "type": "Feature",
      "properties": {
        "@id": "node/3704734414",
        "amenity": "fuel",
        "brand": "Indraprastha Gas Limited",
        "fuel:cng": "yes"
      },
      "geometry": {
        "type": "Point",
        "coordinates": [
          77.1375135,
          28.5721052
        ]
      },
      "id": "node/3704734414"
    },
    {
      "type": "Feature",
      "properties": {
        "@id": "node/3783148688",
        "amenity": "bank",
        "atm": "yes",
        "brand": "IDBI",
        "brand:wikidata": "Q3633485",
        "brand:wikipedia": "en:IDBI Bank",
        "name": "IDBI Bank",
        "name:en": "IDBI Bank",
        "old_name": "Industrial Development Bank of India",
        "short_name": "IDBI",
        "website": "https://www.idbi.com"
      },
      "geometry": {
        "type": "Point",
        "coordinates": [
          77.0643221,
          28.5696878
        ]
      },
      "id": "node/3783148688"
    },
    {
      "type": "Feature",
      "properties": {
        "@id": "node/3783151754",
        "amenity": "bank",
        "atm": "yes",
        "brand": "ICICI",
        "brand:wikidata": "Q1653258",
        "name": "ICICI Bank",
        "name:en": "ICICI Bank",
        "short_name": "ICICI",
        "website": "https://www.icicibank.com",
        "wikidata": "Q1653258",
        "wikipedia": "en:ICICI Bank"
      },
      "geometry": {
        "type": "Point",
        "coordinates": [
          77.0641526,
          28.5695676
        ]
      },
      "id": "node/3783151754"
    },
    {
      "type": "Feature",
      "properties": {
        "@id": "node/3783155937",
        "amenity": "place_of_worship",
        "name": "Hanuman Temple"
      },
      "geometry": {
        "type": "Point",
        "coordinates": [
          77.0533592,
          28.5624309
        ]
      },
      "id": "node/3783155937"
    },
    {
      "type": "Feature",
      "properties": {
        "@id": "node/3813668638",
        "amenity": "bank",
        "atm": "yes",
        "brand:wikidata": "Q2044983",
        "brand:wikipedia": "en:Federal Bank",
        "name": "Federal Bank",
        "name:en": "Federal Bank",
        "operator": "Federal Bank",
        "website": "https://www.federalbank.co.in"
      },
      "geometry": {
        "type": "Point",
        "coordinates": [
          77.2217935,
          28.6319496
        ]
      },
      "id": "node/3813668638"
    },
    {
      "type": "Feature",
      "properties": {
        "@id": "node/3813671938",
        "amenity": "bank",
        "atm": "yes",
        "brand": "State Bank of India",
        "brand:wikidata": "Q1340361",
        "brand:wikipedia": "en:State Bank of India",
        "name": "State Bank of India",
        "short_name": "SBI"
      },
      "geometry": {
        "type": "Point",
        "coordinates": [
          77.2223143,
          28.6322316
        ]
      },
      "id": "node/3813671938"
    },
    {
      "type": "Feature",
      "properties": {
        "@id": "node/3832419829",
        "addr:postcode": "110021",
        "amenity": "marketplace",
        "name": "Yashwant Place",
        "name:hi": "यशवंत प्लेस"
      },
      "geometry": {
        "type": "Point",
        "coordinates": [
          77.1916409,
          28.5843619
        ]
      },
      "id": "node/3832419829"
    },
    {
      "type": "Feature",
      "properties": {
        "@id": "node/3862442973",
        "amenity": "fast_food",
        "brand": "Domino's Pizza",
        "brand:wikidata": "Q839466",
        "brand:wikipedia": "en:Domino's Pizza",
        "cuisine": "pizza",
        "diet:vegetarian": "yes",
        "indoor_seating": "yes",
        "level": "0",
        "name": "Domino's Pizza",
        "short_name": "Domino's",
        "takeaway": "yes"
      },
      "geometry": {
        "type": "Point",
        "coordinates": [
          77.2197258,
          28.6301576
        ]
      },
      "id": "node/3862442973"
    },
    {
      "type": "Feature",
      "properties": {
        "@id": "node/3883052658",
        "amenity": "restaurant",
        "cuisine": "indian",
        "name": "Nagaland Cafe"
      },
      "geometry": {
        "type": "Point",
        "coordinates": [
          77.2062342,
          28.5734423
        ]
      },
      "id": "node/3883052658"
    },
    {
      "type": "Feature",
      "properties": {
        "@id": "node/3885873379",
        "amenity": "cafe",
        "name": "Amour"
      },
      "geometry": {
        "type": "Point",
        "coordinates": [
          77.1858264,
          28.6017514
        ]
      },
      "id": "node/3885873379"
    },
    {
      "type": "Feature",
      "properties": {
        "@id": "node/3991742063",
        "amenity": "restaurant",
        "name": "Connection Beer company",
        "note": "nice view"
      },
      "geometry": {
        "type": "Point",
        "coordinates": [
          77.2204463,
          28.6314049
        ]
      },
      "id": "node/3991742063"
    },
    {
      "type": "Feature",
      "properties": {
        "@id": "node/3991743215",
        "amenity": "fast_food",
        "name": "The Embassy",
        "note": "good panir"
      },
      "geometry": {
        "type": "Point",
        "coordinates": [
          77.2211054,
          28.6336189
        ]
      },
      "id": "node/3991743215"
    },
    {
      "type": "Feature",
      "properties": {
        "@id": "node/3991743217",
        "amenity": "bureau_de_change",
        "name": "western union"
      },
      "geometry": {
        "type": "Point",
        "coordinates": [
          77.2243993,
          28.6296448
        ]
      },
      "id": "node/3991743217"
    },
    {
      "type": "Feature",
      "properties": {
        "@id": "node/4047437859",
        "amenity": "atm",
        "name": "SBI"
      },
      "geometry": {
        "type": "Point",
        "coordinates": [
          77.1468543,
          28.5423944
        ]
      },
      "id": "node/4047437859"
    },
    {
      "type": "Feature",
      "properties": {
        "@id": "node/4047437962",
        "amenity": "pub",
        "name": "Monkey Bar"
      },
      "geometry": {
        "type": "Point",
        "coordinates": [
          77.1471275,
          28.537211
        ]
      },
      "id": "node/4047437962"
    },
    {
      "type": "Feature",
      "properties": {
        "@id": "node/4047437963",
        "amenity": "fast_food;bar",
        "name": "Barbecue nations;Monkey Bar"
      },
      "geometry": {
        "type": "Point",
        "coordinates": [
          77.147666,
          28.5365338
        ]
      },
      "id": "node/4047437963"
    },
    {
      "type": "Feature",
      "properties": {
        "@id": "node/4047437964",
        "amenity": "school",
        "name": "Delhi Public School"
      },
      "geometry": {
        "type": "Point",
        "coordinates": [
          77.1479893,
          28.5386253
        ]
      },
      "id": "node/4047437964"
    },
    {
      "type": "Feature",
      "properties": {
        "@id": "node/4047437965",
        "amenity": "atm",
        "name": "HDFC"
      },
      "geometry": {
        "type": "Point",
        "coordinates": [
          77.1526565,
          28.5358681
        ]
      },
      "id": "node/4047437965"
    },
    {
      "type": "Feature",
      "properties": {
        "@id": "node/4047437967",
        "amenity": "atm",
        "name": "Kotak"
      },
      "geometry": {
        "type": "Point",
        "coordinates": [
          77.1480219,
          28.5366824
        ]
      },
      "id": "node/4047437967"
    },
    {
      "type": "Feature",
      "properties": {
        "@id": "node/4047437969",
        "amenity": "fast_food",
        "name": "China Bowl"
      },
      "geometry": {
        "type": "Point",
        "coordinates": [
          77.1521686,
          28.5340965
        ]
      },
      "id": "node/4047437969"
    },
    {
      "type": "Feature",
      "properties": {
        "@id": "node/4047437970",
        "amenity": "atm",
        "name": "ICICI"
      },
      "geometry": {
        "type": "Point",
        "coordinates": [
          77.1519572,
          28.5332679
        ]
      },
      "id": "node/4047437970"
    },
    {
      "type": "Feature",
      "properties": {
        "@id": "node/4052699977",
        "amenity": "police",
        "name": "police station"
      },
      "geometry": {
        "type": "Point",
        "coordinates": [
          77.195299,
          28.5820097
        ]
      },
      "id": "node/4052699977"
    },
    {
      "type": "Feature",
      "properties": {
        "@id": "node/4052700390",
        "amenity": "place_of_worship",
        "name": "temple"
      },
      "geometry": {
        "type": "Point",
        "coordinates": [
          77.1983395,
          28.5818399
        ]
      },
      "id": "node/4052700390"
    },
    {
      "type": "Feature",
      "properties": {
        "@id": "node/4052700417",
        "amenity": "fast_food",
        "name": "Bikanere"
      },
      "geometry": {
        "type": "Point",
        "coordinates": [
          77.1915395,
          28.5853563
        ]
      },
      "id": "node/4052700417"
    },
    {
      "type": "Feature",
      "properties": {
        "@id": "node/4052700418",
        "amenity": "fast_food",
        "name": "Mughlai chain of restaurants"
      },
      "geometry": {
        "type": "Point",
        "coordinates": [
          77.1915598,
          28.5839783
        ]
      },
      "id": "node/4052700418"
    },
    {
      "type": "Feature",
      "properties": {
        "@id": "node/4052700425",
        "amenity": "fast_food"
      },
      "geometry": {
        "type": "Point",
        "coordinates": [
          77.1917428,
          28.5842818
        ]
      },
      "id": "node/4052700425"
    },
    {
      "type": "Feature",
      "properties": {
        "@id": "node/4052700427",
        "amenity": "fast_food"
      },
      "geometry": {
        "type": "Point",
        "coordinates": [
          77.1919664,
          28.5843924
        ]
      },
      "id": "node/4052700427"
    },
    {
      "type": "Feature",
      "properties": {
        "@id": "node/4069815728",
        "addr:housename": "B",
        "addr:housenumber": "B-23",
        "addr:place": "Connaught Place",
        "addr:postcode": "110001",
        "addr:street": "Inner Circle",
        "amenity": "restaurant",
        "level": "0",
        "name": "The Colonnade",
        "wheelchair": "no"
      },
      "geometry": {
        "type": "Point",
        "coordinates": [
          77.2190699,
          28.6342635
        ]
      },
      "id": "node/4069815728"
    },
    {
      "type": "Feature",
      "properties": {
        "@id": "node/4069858894",
        "amenity": "restaurant",
        "name": "Gola"
      },
      "geometry": {
        "type": "Point",
        "coordinates": [
          77.2201059,
          28.635221
        ]
      },
      "id": "node/4069858894"
    },
    {
      "type": "Feature",
      "properties": {
        "@id": "node/4071875072",
        "addr:housename": "A",
        "amenity": "post_office"
      },
      "geometry": {
        "type": "Point",
        "coordinates": [
          77.2179024,
          28.6327263
        ]
      },
      "id": "node/4071875072"
    },
    {
      "type": "Feature",
      "properties": {
        "@id": "node/4114512206",
        "addr:street": "Khan Market",
        "amenity": "restaurant",
        "internet_access": "wlan",
        "name": "Market Café ",
        "website": "www.marketcafe.in"
      },
      "geometry": {
        "type": "Point",
        "coordinates": [
          77.2262942,
          28.5996402
        ]
      },
      "id": "node/4114512206"
    },
    {
      "type": "Feature",
      "properties": {
        "@id": "node/4122535796",
        "amenity": "atm"
      },
      "geometry": {
        "type": "Point",
        "coordinates": [
          77.2166292,
          28.6316863
        ]
      },
      "id": "node/4122535796"
    },
    {
      "type": "Feature",
      "properties": {
        "@id": "node/4122549692",
        "amenity": "atm",
        "brand": "Kotak Mahindra Bank",
        "opening_hours": "24/7"
      },
      "geometry": {
        "type": "Point",
        "coordinates": [
          77.2164451,
          28.6311221
        ]
      },
      "id": "node/4122549692"
    },
    {
      "type": "Feature",
      "properties": {
        "@id": "node/4122549693",
        "amenity": "bank",
        "branch": "Capital Point",
        "brand": "Ratnakar Bank Limited",
        "brand:short": "RNL Bank"
      },
      "geometry": {
        "type": "Point",
        "coordinates": [
          77.2129442,
          28.6294722
        ]
      },
      "id": "node/4122549693"
    },
    {
      "type": "Feature",
      "properties": {
        "@id": "node/4122549695",
        "amenity": "bank"
      },
      "geometry": {
        "type": "Point",
        "coordinates": [
          77.207037,
          28.6334535
        ]
      },
      "id": "node/4122549695"
    },
    {
      "type": "Feature",
      "properties": {
        "@id": "node/4122549792",
        "amenity": "bank"
      },
      "geometry": {
        "type": "Point",
        "coordinates": [
          77.2163119,
          28.6321307
        ]
      },
      "id": "node/4122549792"
    },
    {
      "type": "Feature",
      "properties": {
        "@id": "node/4122564390",
        "amenity": "fast_food",
        "name": "McDonald's"
      },
      "geometry": {
        "type": "Point",
        "coordinates": [
          77.2162739,
          28.6322738
        ]
      },
      "id": "node/4122564390"
    },
    {
      "type": "Feature",
      "properties": {
        "@id": "node/4122564391",
        "amenity": "atm"
      },
      "geometry": {
        "type": "Point",
        "coordinates": [
          77.212874,
          28.6294413
        ]
      },
      "id": "node/4122564391"
    },
    {
      "type": "Feature",
      "properties": {
        "@id": "node/4122564392",
        "amenity": "post_box"
      },
      "geometry": {
        "type": "Point",
        "coordinates": [
          77.2091588,
          28.6281407
        ]
      },
      "id": "node/4122564392"
    },
    {
      "type": "Feature",
      "properties": {
        "@id": "node/4122590190",
        "amenity": "fuel",
        "brand": "Bharat Petroleum",
        "name": "Bharat Petroleum"
      },
      "geometry": {
        "type": "Point",
        "coordinates": [
          77.2101806,
          28.6289471
        ]
      },
      "id": "node/4122590190"
    },
    {
      "type": "Feature",
      "properties": {
        "@id": "node/4122592290",
        "amenity": "bank"
      },
      "geometry": {
        "type": "Point",
        "coordinates": [
          77.2076665,
          28.6333793
        ]
      },
      "id": "node/4122592290"
    },
    {
      "type": "Feature",
      "properties": {
        "@id": "node/4122592291",
        "amenity": "restaurant",
        "name": "Odeon sweets"
      },
      "geometry": {
        "type": "Point",
        "coordinates": [
          77.2080471,
          28.6334275
        ]
      },
      "id": "node/4122592291"
    },
    {
      "type": "Feature",
      "properties": {
        "@id": "node/4211222806",
        "amenity": "atm",
        "opening_hours": "24/7",
        "operator": "HDFC"
      },
      "geometry": {
        "type": "Point",
        "coordinates": [
          77.1980051,
          28.5746051
        ]
      },
      "id": "node/4211222806"
    },
    {
      "type": "Feature",
      "properties": {
        "@id": "node/4211222809",
        "amenity": "toilets",
        "fee": "no",
        "opening_hours": "24/7"
      },
      "geometry": {
        "type": "Point",
        "coordinates": [
          77.1933821,
          28.5694281
        ]
      },
      "id": "node/4211222809"
    },
    {
      "type": "Feature",
      "properties": {
        "@id": "node/4211222813",
        "amenity": "toilets"
      },
      "geometry": {
        "type": "Point",
        "coordinates": [
          77.1921453,
          28.5795503
        ]
      },
      "id": "node/4211222813"
    },
    {
      "type": "Feature",
      "properties": {
        "@id": "node/4211222834",
        "amenity": "atm",
        "operator": "hdfc"
      },
      "geometry": {
        "type": "Point",
        "coordinates": [
          77.1968807,
          28.5764368
        ]
      },
      "id": "node/4211222834"
    },
    {
      "type": "Feature",
      "properties": {
        "@id": "node/4211222837",
        "amenity": "atm",
        "operator": "atm"
      },
      "geometry": {
        "type": "Point",
        "coordinates": [
          77.1967295,
          28.5773881
        ]
      },
      "id": "node/4211222837"
    },
    {
      "type": "Feature",
      "properties": {
        "@id": "node/4211254606",
        "amenity": "atm",
        "opening_hours": "24/7",
        "operator": "muthoot bank"
      },
      "geometry": {
        "type": "Point",
        "coordinates": [
          77.1950523,
          28.5696397
        ]
      },
      "id": "node/4211254606"
    },
    {
      "type": "Feature",
      "properties": {
        "@id": "node/4211254607",
        "amenity": "atm",
        "opening_hours": "Mo-Su 07:00-22:00",
        "operator": "SBT"
      },
      "geometry": {
        "type": "Point",
        "coordinates": [
          77.1973549,
          28.5726861
        ]
      },
      "id": "node/4211254607"
    },
    {
      "type": "Feature",
      "properties": {
        "@id": "node/4211254608",
        "amenity": "atm",
        "opening_hours": "24/7",
        "operator": "ICICI"
      },
      "geometry": {
        "type": "Point",
        "coordinates": [
          77.1980129,
          28.5750232
        ]
      },
      "id": "node/4211254608"
    },
    {
      "type": "Feature",
      "properties": {
        "@id": "node/4211254615",
        "amenity": "fast_food",
        "name": "haldiram"
      },
      "geometry": {
        "type": "Point",
        "coordinates": [
          77.1957332,
          28.576547
        ]
      },
      "id": "node/4211254615"
    },
    {
      "type": "Feature",
      "properties": {
        "@id": "node/4211259621",
        "amenity": "toilets",
        "opening_hours": "24/7"
      },
      "geometry": {
        "type": "Point",
        "coordinates": [
          77.1963263,
          28.5777701
        ]
      },
      "id": "node/4211259621"
    },
    {
      "type": "Feature",
      "properties": {
        "@id": "node/4211259624",
        "amenity": "toilets",
        "opening_hours": "24/7",
        "operator": "south square mall"
      },
      "geometry": {
        "type": "Point",
        "coordinates": [
          77.1954027,
          28.5768106
        ]
      },
      "id": "node/4211259624"
    },
    {
      "type": "Feature",
      "properties": {
        "@id": "node/4211259633",
        "amenity": "fast_food",
        "name": "dominos"
      },
      "geometry": {
        "type": "Point",
        "coordinates": [
          77.195264,
          28.5765364
        ]
      },
      "id": "node/4211259633"
    },
    {
      "type": "Feature",
      "properties": {
        "@id": "node/4211259635",
        "amenity": "theatre",
        "name": "DT"
      },
      "geometry": {
        "type": "Point",
        "coordinates": [
          77.1896241,
          28.5831328
        ]
      },
      "id": "node/4211259635"
    },
    {
      "type": "Feature",
      "properties": {
        "@id": "node/4211259636",
        "amenity": "fast_food",
        "name": "khandani pakode wala"
      },
      "geometry": {
        "type": "Point",
        "coordinates": [
          77.1938516,
          28.5696026
        ]
      },
      "id": "node/4211259636"
    },
    {
      "type": "Feature",
      "properties": {
        "@id": "node/4211259644",
        "amenity": "fast_food",
        "name": "nirulas"
      },
      "geometry": {
        "type": "Point",
        "coordinates": [
          77.1889265,
          28.5683377
        ]
      },
      "id": "node/4211259644"
    },
    {
      "type": "Feature",
      "properties": {
        "@id": "node/4211274103",
        "amenity": "fast_food",
        "name": "subway"
      },
      "geometry": {
        "type": "Point",
        "coordinates": [
          77.1957209,
          28.5764221
        ]
      },
      "id": "node/4211274103"
    },
    {
      "type": "Feature",
      "properties": {
        "@id": "node/4211293732",
        "amenity": "atm",
        "operator": "atm"
      },
      "geometry": {
        "type": "Point",
        "coordinates": [
          77.1966346,
          28.5770437
        ]
      },
      "id": "node/4211293732"
    },
    {
      "type": "Feature",
      "properties": {
        "@id": "node/4211293793",
        "amenity": "restaurant",
        "name": "flaming wok"
      },
      "geometry": {
        "type": "Point",
        "coordinates": [
          77.1957107,
          28.5764448
        ]
      },
      "id": "node/4211293793"
    },
    {
      "type": "Feature",
      "properties": {
        "@id": "node/4211294407",
        "amenity": "toilets",
        "opening_hours": "Mo-Su 06:00-22:00"
      },
      "geometry": {
        "type": "Point",
        "coordinates": [
          77.2040764,
          28.5698108
        ]
      },
      "id": "node/4211294407"
    },
    {
      "type": "Feature",
      "properties": {
        "@id": "node/4211294802",
        "amenity": "fuel",
        "brand": "Indraprastha Gas Limited",
        "brand:short": "IGL",
        "fuel:cng": "yes"
      },
      "geometry": {
        "type": "Point",
        "coordinates": [
          77.1964421,
          28.5699619
        ]
      },
      "id": "node/4211294802"
    },
    {
      "type": "Feature",
      "properties": {
        "@id": "node/4232257707",
        "amenity": "community_centre",
        "name": "ndmc community centre"
      },
      "geometry": {
        "type": "Point",
        "coordinates": [
          77.1993749,
          28.572508
        ]
      },
      "id": "node/4232257707"
    },
    {
      "type": "Feature",
      "properties": {
        "@id": "node/4232266401",
        "amenity": "community_centre",
        "name": "ndmc community centre"
      },
      "geometry": {
        "type": "Point",
        "coordinates": [
          77.1965682,
          28.5704357
        ]
      },
      "id": "node/4232266401"
    },
    {
      "type": "Feature",
      "properties": {
        "@id": "node/4232268790",
        "amenity": "place_of_worship",
        "name": "vinayak mandir"
      },
      "geometry": {
        "type": "Point",
        "coordinates": [
          77.1993122,
          28.5713909
        ]
      },
      "id": "node/4232268790"
    },
    {
      "type": "Feature",
      "properties": {
        "@id": "node/4241254891",
        "amenity": "cafe",
        "brand": "Starbucks",
        "brand:wikidata": "Q37158",
        "brand:wikipedia": "en:Starbucks",
        "cuisine": "coffee_shop",
        "internet_access": "wlan",
        "internet_access:fee": "no",
        "name": "Starbucks",
        "official_name": "Starbucks Coffee",
        "opening_hours": "Mo-Su 08:00-00:30",
        "outdoor_seating": "no",
        "smoking": "no",
        "takeaway": "yes",
        "wheelchair": "limited"
      },
      "geometry": {
        "type": "Point",
        "coordinates": [
          77.2204652,
          28.6302749
        ]
      },
      "id": "node/4241254891"
    },
    {
      "type": "Feature",
      "properties": {
        "@id": "node/4241264489",
        "amenity": "fast_food",
        "brand": "McDonald's",
        "brand:wikidata": "Q38076",
        "brand:wikipedia": "en:McDonald's",
        "cuisine": "burger",
        "diet:vegetarian": "yes",
        "name": "McDonald's",
        "takeaway": "yes"
      },
      "geometry": {
        "type": "Point",
        "coordinates": [
          77.220132,
          28.6302116
        ]
      },
      "id": "node/4241264489"
    },
    {
      "type": "Feature",
      "properties": {
        "@id": "node/4302372175",
        "addr:postcode": "110001",
        "amenity": "post_box",
        "operator": "India Post",
        "source": "openpostbox.org"
      },